,uid,lat,lng,venueID,venue_descr,time,city_name,First_Category,Second_Category,step,epoch,city,simulation_state
0,602,40.76295864769284,-73.97392988204956,35690,Other Great Outdoors,2012-06-03 16:10:14+00:00,New York City,Landmarks and Outdoors,Other Great Outdoors,,,,
1,602,40.73528249691621,-73.99040315158283,758,Park,2012-10-28 02:13:20+00:00,New York City,Landmarks and Outdoors,Park,,,,
2,602,40.57840084043545,-73.93618583679199,1774,Community College,2012-06-07 16:11:56+00:00,New York City,Community and Government,Education,,,,
3,602,40.76820821285607,-73.9818177971927,9180,Clothing Store,2012-10-25 00:54:28+00:00,New York City,Retail,Boutique,,,,
4,602,40.76820821285607,-73.9818177971927,9180,Clothing Store,2012-10-23 00:53:45+00:00,New York City,Retail,Boutique,,,,
5,602,40.76820821285607,-73.9818177971927,9180,Clothing Store,2012-10-24 00:57:40+00:00,New York City,Retail,Boutique,,,,
6,602,40.76803326982161,-73.98186922073364,2490,Plaza,2012-10-24 12:08:33+00:00,New York City,Landmarks and Outdoors,Plaza,,,,
7,602,40.7714256153356,-73.97350072860723,1056,Park,2012-11-01 18:00:09+00:00,,Landmarks and Outdoors,Park,2.0,0.0,nyc,Rec
8,602,40.76466691294306,-73.97603835470167,2960,Coffee Shop,2012-11-27 18:00:09+00:00,,Dining and Drinking,"Cafe, Coffee, and Tea House",28.0,4.0,nyc,Rec
9,602,40.75277926721909,-73.97710013223526,12143,Miscellaneous Shop,2012-12-02 18:00:09+00:00,,Retail,Miscellaneous Store,33.0,4.0,nyc,Rec
10,602,40.75234609858383,-73.99408777489505,1938,Movie Theater,2012-12-04 18:00:09+00:00,,Arts and Entertainment,Movie Theater,35.0,5.0,nyc,Rec
11,602,40.80536705816442,-73.93770139979851,30608,Clothing Store,2012-12-05 18:00:09+00:00,,Retail,Fashion Retail,36.0,5.0,nyc,Rec
12,602,40.789864996022565,-73.9448022602158,27127,Electronics Store,2012-12-05 18:00:09+00:00,,Retail,Computers and Electronics Retail,36.0,5.0,nyc,Rec
13,602,40.76459171490056,-73.97121297728602,1856,Department Store,2012-12-09 18:00:09+00:00,,Retail,Department Store,40.0,5.0,nyc,Rec
14,602,40.77300090683199,-73.97265784558412,31860,Stadium,2012-12-10 18:00:09+00:00,,Arts and Entertainment,Stadium,41.0,5.0,nyc,Rec
15,602,40.78129194530576,-74.0208861626204,18981,Drugstore / Pharmacy,2012-12-12 18:00:09+00:00,,Retail,Pharmacy,43.0,6.0,nyc,Rec
16,602,40.7772917298741,-73.98412227630615,20696,Playground,2012-12-12 18:00:09+00:00,,Landmarks and Outdoors,Park,43.0,6.0,nyc,Rec
17,602,40.77473050116933,-73.98209327769995,7924,Electronics Store,2012-12-14 18:00:09+00:00,,Retail,Computers and Electronics Retail,45.0,6.0,nyc,Rec
18,602,40.76597841669596,-73.98156527304751,6703,Food & Drink Shop,2012-12-17 18:00:09+00:00,,Retail,Food and Beverage Retail,48.0,6.0,nyc,Rec
19,602,40.75876539294497,-73.97871494293213,19694,Mall,2012-12-18 18:00:09+00:00,,Retail,Shopping Mall,49.0,7.0,nyc,Rec
20,602,40.75281067913847,-73.97726655006409,33067,Hot Dog Joint,2012-12-20 18:00:09+00:00,,Dining and Drinking,Restaurant,51.0,7.0,nyc,Rec
21,602,40.75281239893301,-73.97717474340911,31763,Electronics Store,2012-12-21 18:00:09+00:00,,Retail,Computers and Electronics Retail,52.0,7.0,nyc,Rec
22,602,40.76459171490056,-73.97121297728602,1856,Department Store,2012-12-27 18:00:09+00:00,,Retail,Department Store,58.0,8.0,nyc,Rec
23,602,40.77159920867316,-74.02947577079085,22119,Plaza,2013-01-01 18:00:09+00:00,,Landmarks and Outdoors,Plaza,63.0,9.0,nyc,Rec
24,602,40.7772917298741,-73.98412227630615,20696,Playground,2013-01-01 18:00:09+00:00,,Landmarks and Outdoors,Park,63.0,9.0,nyc,Rec
25,602,40.774697291507216,-73.98194979831837,2817,Movie Theater,2013-01-05 18:00:09+00:00,,Arts and Entertainment,Movie Theater,67.0,9.0,nyc,Rec
26,602,40.77473050116933,-73.98209327769995,7924,Electronics Store,2013-01-07 18:00:09+00:00,,Retail,Computers and Electronics Retail,69.0,9.0,nyc,Rec
27,602,40.75080071190104,-73.9912986907656,17324,Electronics Store,2013-01-07 18:00:09+00:00,,Retail,Computers and Electronics Retail,69.0,9.0,nyc,Rec
28,602,40.74866717767752,-73.98837625980377,3577,Park,2013-01-11 18:00:09+00:00,,Landmarks and Outdoors,Park,73.0,10.0,nyc,Rec
29,602,40.77770361952876,-73.98217936527746,25878,Pizza Place,2013-01-18 18:00:09+00:00,,Dining and Drinking,Restaurant,80.0,11.0,nyc,Rec
30,602,40.77916030461479,-74.01658834439822,20621,Electronics Store,2013-01-18 18:00:09+00:00,,Retail,Computers and Electronics Retail,80.0,11.0,nyc,Rec
31,602,40.75281239893301,-73.97717474340911,31763,Electronics Store,2013-01-21 18:00:09+00:00,,Retail,Computers and Electronics Retail,83.0,11.0,nyc,Rec
32,602,40.80496514019883,-73.94109400181172,29268,Deli / Bodega,2013-01-25 18:00:09+00:00,,Dining and Drinking,Restaurant,87.0,12.0,nyc,Rec
33,602,40.75080071190104,-73.9912986907656,17324,Electronics Store,2013-01-30 18:00:09+00:00,,Retail,Computers and Electronics Retail,92.0,13.0,nyc,Rec
34,602,40.75068531474543,-73.99144216316094,27408,Coffee Shop,2013-02-02 18:00:09+00:00,,Dining and Drinking,"Cafe, Coffee, and Tea House",95.0,13.0,nyc,Rec
35,602,40.77505316312451,-73.98446928068036,7585,Chinese Restaurant,2013-02-02 18:00:09+00:00,,Dining and Drinking,Restaurant,95.0,13.0,nyc,Rec
36,602,40.778904692836086,-73.98202440761015,7800,Clothing Store,2013-02-02 18:00:09+00:00,,Retail,Fashion Retail,95.0,13.0,nyc,Rec
37,602,40.773883557841096,-73.98221953946711,27055,Department Store,2013-02-03 18:00:09+00:00,,Retail,Department Store,96.0,13.0,nyc,Rec
