,uid,lat,lng,venueID,venue_descr,time,city_name,First_Category,Second_Category,step,epoch,city,simulation_state
0,1022,40.7114673282201,-74.01328325271606,11234,Historic Site,2012-09-14 21:31:00+00:00,New York City,Landmarks and Outdoors,Historic and Protected Site,,,,
1,1022,40.77229,-73.98509,11623,Event Space,2012-09-15 00:03:22+00:00,New York City,Business and Professional Services,Event Space,,,,
2,1022,40.72665881338428,-73.99228003980646,29663,Italian Restaurant,2012-09-15 00:26:32+00:00,New York City,Dining and Drinking,Restaurant,,,,
3,1022,40.74946079318199,-73.9848365828663,3068,Bar,2012-09-15 05:40:21+00:00,New York City,Dining and Drinking,Bar,,,,
4,1022,40.75039771321043,-74.0034245986147,24661,Hotel,2012-09-15 05:53:53+00:00,New York City,Travel and Transportation,Lodging,,,,
5,1022,40.77253079341116,-73.98344197864982,129,Performing Arts Venue,2012-09-15 06:02:05+00:00,New York City,Arts and Entertainment,Performing Arts Venue,,,,
6,1022,40.80684894365967,-74.06399095229042,37202,Other Great Outdoors,2012-09-15 06:20:52+00:00,New York City,Landmarks and Outdoors,Other Great Outdoors,,,,
7,1022,40.70627844701678,-74.01308804712747,37210,Building,2012-09-15 10:27:16+00:00,New York City,Landmarks and Outdoors,Structure,,,,
8,1022,40.64674618651803,-74.0765195097278,17293,Government Building,2012-09-15 11:24:33+00:00,New York City,Landmarks and Outdoors,Monument,,,,
9,1022,40.70466881817266,-74.00944422692616,19429,Garden,2012-09-15 12:16:53+00:00,New York City,Landmarks and Outdoors,Garden,,,,
10,1022,40.720480045234375,-73.99355980323412,736,Music Venue,2012-09-15 16:33:29+00:00,New York City,Arts and Entertainment,Performing Arts Venue,,,,
11,1022,40.71403714818288,-73.98725509643553,34899,Pizza Place,2012-09-15 22:52:57+00:00,New York City,Dining and Drinking,Restaurant,,,,
12,1022,40.73649582303289,-73.99055837150034,36469,Other Great Outdoors,2012-09-15 23:31:45+00:00,New York City,Landmarks and Outdoors,Other Great Outdoors,,,,
13,1022,40.79318963565758,-73.85139118382254,35665,Mosque,2012-09-15 23:38:49+00:00,New York City,Community and Government,Spiritual Center,,,,
14,1022,40.80711502798713,-73.9240385437465,24535,Cemetery,2012-11-16 18:00:09+00:00,,Community and Government,Cemetery,17.0,2.0,nyc,Rec
15,1022,40.82137060113813,-73.90869251819866,24751,High School,2012-11-16 18:00:09+00:00,,Community and Government,Education,17.0,2.0,nyc,Rec
16,1022,40.80821992957681,-73.96215395358303,1185,University,2012-11-16 18:00:09+00:00,,Community and Government,Education,17.0,2.0,nyc,Rec
17,1022,40.801837819456864,-73.94944035335823,24438,History Museum,2012-11-17 18:00:09+00:00,,Arts and Entertainment,Museum,18.0,2.0,nyc,Rec
18,1022,40.8465953797366,-73.94228225952985,8568,Other Great Outdoors,2012-11-17 18:00:09+00:00,,Landmarks and Outdoors,Park,18.0,2.0,nyc,Rec
19,1022,40.85121557428245,-73.95206451416016,3686,Bridge,2012-11-17 18:00:09+00:00,,Landmarks and Outdoors,Bridge,18.0,2.0,nyc,Rec
20,1022,40.86303055195745,-73.9328384399414,1303,Museum,2012-11-17 18:00:09+00:00,,Arts and Entertainment,Museum,18.0,2.0,nyc,Rec
21,1022,40.91142073810325,-73.98678302764893,29362,Bar,2012-11-17 18:00:09+00:00,,Dining and Drinking,Bar,18.0,2.0,nyc,Rec
22,1022,40.78861347,-73.98050565000001,27975,Arts & Entertainment,2012-11-17 18:00:09+00:00,,Arts and Entertainment,Arts and Entertainment,18.0,2.0,nyc,Rec
23,1022,40.780048,-73.9815882298017,13914,Stadium,2012-11-25 18:00:09+00:00,,Arts and Entertainment,Stadium,26.0,3.0,nyc,Rec
24,1022,40.76081793921089,-73.99016238560442,1015,Bar,2012-11-25 18:00:09+00:00,,Dining and Drinking,Bar,26.0,3.0,nyc,Rec
25,1022,40.70964742200671,-74.01051729615469,5324,Coffee Shop,2012-11-26 18:00:09+00:00,,Dining and Drinking,"Cafe, Coffee, and Tea House",27.0,3.0,nyc,Rec
26,1022,40.70849915928652,-74.01120015525464,37341,Clothing Store,2012-11-27 18:00:09+00:00,,Retail,Boutique,28.0,4.0,nyc,Rec
27,1022,40.726483,-73.984286,6266,Music Store,2012-11-29 18:00:09+00:00,,Retail,Music Store,30.0,4.0,nyc,Rec
28,1022,40.756489872673846,-73.98626804351807,2360,Plaza,2012-12-01 18:00:09+00:00,,Landmarks and Outdoors,Plaza,32.0,4.0,nyc,Rec
29,1022,40.74831361076324,-73.98822069168091,10073,Neighborhood,2012-12-01 18:00:09+00:00,,Landmarks and Outdoors,States and Municipalities,32.0,4.0,nyc,Rec
30,1022,40.7565,-74.002418,34509,Convention Center,2012-12-01 18:00:09+00:00,,Business and Professional Services,Convention Center,32.0,4.0,nyc,Rec
31,1022,40.71971101647132,-74.00456656363339,14191,Music Venue,2012-12-01 18:00:09+00:00,,Arts and Entertainment,Performing Arts Venue,32.0,4.0,nyc,Rec
32,1022,40.72028975614227,-74.00542733678141,7264,Park,2012-12-01 18:00:09+00:00,,Landmarks and Outdoors,Park,32.0,4.0,nyc,Rec
33,1022,40.761396839012,-73.97698574930376,7784,Art Museum,2012-12-01 18:00:09+00:00,,Arts and Entertainment,Museum,32.0,4.0,nyc,Rec
34,1022,40.76421262848506,-73.9870174251268,21988,Bar,2012-12-01 18:00:09+00:00,,Dining and Drinking,Bar,32.0,4.0,nyc,Rec
35,1022,40.753271503883234,-73.9822769165039,1791,Library,2012-12-01 18:00:09+00:00,,Community and Government,Library,32.0,4.0,nyc,Rec
36,1022,40.752155221763225,-73.99148807430478,14851,Hotel,2012-12-01 18:00:09+00:00,,Travel and Transportation,Lodging,32.0,4.0,nyc,Rec
37,1022,40.75228597087123,-73.99172336874453,16071,Latin American Restaurant,2012-12-12 18:00:09+00:00,,Dining and Drinking,Restaurant,43.0,6.0,nyc,Rec
38,1022,40.74379022679562,-73.98389160633087,12503,Deli / Bodega,2012-12-12 18:00:09+00:00,,Dining and Drinking,Restaurant,43.0,6.0,nyc,Rec
39,1022,40.7416013615111,-73.9992009904121,28443,Furniture / Home Store,2012-12-12 18:00:09+00:00,,Retail,Furniture and Home Store,43.0,6.0,nyc,Rec
