,uid,lat,lng,venueID,venue_descr,time,city_name,First_Category,Second_Category,step,epoch,city,simulation_state
0,1037,40.76981004887623,-73.98213919107941,36964,Dessert Shop,2012-10-12 19:38:15+00:00,New York City,Dining and Drinking,Dessert Shop,,,,
1,1037,40.756489872673846,-73.98626804351807,2360,Plaza,2012-10-12 21:12:13+00:00,New York City,Landmarks and Outdoors,Plaza,,,,
2,1037,40.90441486664417,-73.78627172804937,25362,School,2012-10-26 14:48:16+00:00,New York City,Community and Government,Education,,,,
3,1037,40.7714256153356,-73.97350072860723,1056,Park,2012-10-08 17:14:43+00:00,New York City,Landmarks and Outdoors,Park,,,,
4,1037,40.76403087948803,-73.98344197864982,6349,Theater,2012-10-25 21:54:48+00:00,New York City,Arts and Entertainment,Performing Arts Venue,,,,
5,1037,40.7714256153356,-73.97350072860723,1056,Park,2012-10-23 04:23:38+00:00,New York City,Landmarks and Outdoors,Park,,,,
6,1037,40.77300090683199,-73.97265784558412,31860,Stadium,2012-11-01 18:00:09+00:00,,Arts and Entertainment,Stadium,2.0,0.0,nyc,Rec
7,1037,40.69603913810238,-73.98778645306899,21517,College Academic Building,2012-11-05 18:00:09+00:00,,Community and Government,Education,6.0,0.0,nyc,Rec
8,1037,40.69118178774824,-73.97480964660645,1038,Park,2012-11-05 18:00:09+00:00,,Landmarks and Outdoors,Park,6.0,0.0,nyc,Rec
9,1037,40.67834,-73.979237,659,Mexican Restaurant,2012-11-06 18:00:09+00:00,,Dining and Drinking,Restaurant,7.0,1.0,nyc,Rec
10,1037,40.747631,-73.98613,21568,Bakery,2012-11-07 18:00:09+00:00,,Dining and Drinking,Bakery,8.0,1.0,nyc,Rec
11,1037,40.745180776401206,-73.97943602217596,36471,Other Great Outdoors,2012-11-23 18:00:09+00:00,,Landmarks and Outdoors,Other Great Outdoors,24.0,3.0,nyc,Rec
12,1037,40.74551452666217,-73.97945323993258,33015,Italian Restaurant,2012-11-24 18:00:09+00:00,,Dining and Drinking,Restaurant,25.0,3.0,nyc,Rec
13,1037,40.759272,-73.981107,3449,Bakery,2012-11-24 18:00:09+00:00,,Dining and Drinking,Bakery,25.0,3.0,nyc,Rec
14,1037,40.7595730799586,-73.98524405790694,10737,Coffee Shop,2012-11-26 18:00:09+00:00,,Dining and Drinking,"Cafe, Coffee, and Tea House",27.0,3.0,nyc,Rec
15,1037,40.73528249691621,-73.99040315158283,758,Park,2012-11-26 18:00:09+00:00,,Landmarks and Outdoors,Park,27.0,3.0,nyc,Rec
16,1037,40.73083612189599,-73.99764060974121,896,Park,2012-12-03 18:00:09+00:00,,Landmarks and Outdoors,Park,34.0,4.0,nyc,Rec
17,1037,40.731463098592265,-73.98277049893474,5790,Hot Dog Joint,2012-12-06 18:00:09+00:00,,Dining and Drinking,Restaurant,37.0,5.0,nyc,Rec
18,1037,40.73528249691621,-73.99040315158283,758,Park,2012-12-17 18:00:09+00:00,,Landmarks and Outdoors,Park,48.0,6.0,nyc,Rec
19,1037,40.69604841969268,-73.98802175204773,31741,College Academic Building,2012-12-18 18:00:09+00:00,,Community and Government,Education,49.0,7.0,nyc,Rec
20,1037,40.69048327919688,-73.99201031279264,7075,Movie Theater,2013-01-13 18:00:09+00:00,,Arts and Entertainment,Movie Theater,75.0,10.0,nyc,Rec
21,1037,40.72024161839644,-73.96436989470621,4908,Scenic Lookout,2013-01-13 18:00:09+00:00,,Landmarks and Outdoors,Scenic Lookout,75.0,10.0,nyc,Rec
22,1037,40.72133752277011,-73.9521841234126,875,Park,2013-01-14 18:00:09+00:00,,Landmarks and Outdoors,Park,76.0,10.0,nyc,Rec
23,1037,40.75281067913847,-73.97726655006409,33067,Hot Dog Joint,2013-01-16 18:00:09+00:00,,Dining and Drinking,Restaurant,78.0,11.0,nyc,Rec
24,1037,40.76597841669596,-73.98156527304751,6703,Food & Drink Shop,2013-01-25 18:00:09+00:00,,Retail,Food and Beverage Retail,87.0,12.0,nyc,Rec
25,1037,40.74218830848454,-73.98792418909154,902,Park,2013-01-29 18:00:09+00:00,,Landmarks and Outdoors,Park,91.0,13.0,nyc,Rec
26,1037,40.741672705942285,-73.98928821086884,5936,Neighborhood,2013-01-29 18:00:09+00:00,,Landmarks and Outdoors,States and Municipalities,91.0,13.0,nyc,Rec
27,1037,40.74204093790964,-73.99044933198735,5994,Sandwich Place,2013-02-07 18:00:09+00:00,,Dining and Drinking,Restaurant,100.0,14.0,nyc,Rec
