,uid,lat,lng,venueID,venue_descr,time,city_name,First_Category,Second_Category,step,epoch,city,simulation_state
0,1022,40.7114673282201,-74.01328325271606,11234,Historic Site,2012-09-14 21:31:00+00:00,New York City,Landmarks and Outdoors,Historic and Protected Site,,,,
1,1022,40.77229,-73.98509,11623,Event Space,2012-09-15 00:03:22+00:00,New York City,Business and Professional Services,Event Space,,,,
2,1022,40.72665881338428,-73.99228003980646,29663,Italian Restaurant,2012-09-15 00:26:32+00:00,New York City,Dining and Drinking,Restaurant,,,,
3,1022,40.74946079318199,-73.9848365828663,3068,Bar,2012-09-15 05:40:21+00:00,New York City,Dining and Drinking,Bar,,,,
4,1022,40.75039771321043,-74.0034245986147,24661,Hotel,2012-09-15 05:53:53+00:00,New York City,Travel and Transportation,Lodging,,,,
5,1022,40.77253079341116,-73.98344197864982,129,Performing Arts Venue,2012-09-15 06:02:05+00:00,New York City,Arts and Entertainment,Performing Arts Venue,,,,
6,1022,40.80684894365967,-74.06399095229042,37202,Other Great Outdoors,2012-09-15 06:20:52+00:00,New York City,Landmarks and Outdoors,Other Great Outdoors,,,,
7,1022,40.70627844701678,-74.01308804712747,37210,Building,2012-09-15 10:27:16+00:00,New York City,Landmarks and Outdoors,Structure,,,,
8,1022,40.64674618651803,-74.0765195097278,17293,Government Building,2012-09-15 11:24:33+00:00,New York City,Landmarks and Outdoors,Monument,,,,
9,1022,40.70466881817266,-74.00944422692616,19429,Garden,2012-09-15 12:16:53+00:00,New York City,Landmarks and Outdoors,Garden,,,,
10,1022,40.720480045234375,-73.99355980323412,736,Music Venue,2012-09-15 16:33:29+00:00,New York City,Arts and Entertainment,Performing Arts Venue,,,,
11,1022,40.71403714818288,-73.98725509643553,34899,Pizza Place,2012-09-15 22:52:57+00:00,New York City,Dining and Drinking,Restaurant,,,,
12,1022,40.73649582303289,-73.99055837150034,36469,Other Great Outdoors,2012-09-15 23:31:45+00:00,New York City,Landmarks and Outdoors,Other Great Outdoors,,,,
13,1022,40.79318963565758,-73.85139118382254,35665,Mosque,2012-09-15 23:38:49+00:00,New York City,Community and Government,Spiritual Center,,,,
14,1022,40.79318963565758,-73.85139118382254,35665,Mosque,2012-11-16 18:00:09+00:00,,Community and Government,Spiritual Center,17.0,2.0,nyc,Return
15,1022,40.79318963565758,-73.85139118382254,35665,Mosque,2012-11-16 18:00:09+00:00,,Community and Government,Spiritual Center,17.0,2.0,nyc,Return
16,1022,40.79318963565758,-73.85139118382254,35665,Mosque,2012-11-16 18:00:09+00:00,,Community and Government,Spiritual Center,17.0,2.0,nyc,Return
17,1022,40.720480045234375,-73.99355980323412,736,Music Venue,2012-11-17 18:00:09+00:00,,Arts and Entertainment,Performing Arts Venue,18.0,2.0,nyc,Return
18,1022,40.80684894365967,-74.06399095229042,37202,Other Great Outdoors,2012-11-17 18:00:09+00:00,,Landmarks and Outdoors,Other Great Outdoors,18.0,2.0,nyc,Return
19,1022,40.705953265881305,-73.99656772613525,3916,Bridge,2012-11-17 18:00:09+00:00,,Landmarks and Outdoors,Bridge,18.0,2.0,nyc,Rec
20,1022,40.77253079341116,-73.98344197864982,129,Performing Arts Venue,2012-11-17 18:00:09+00:00,,Arts and Entertainment,Performing Arts Venue,18.0,2.0,nyc,Return
21,1022,40.77138107266706,-73.95646042374283,2621,Bar,2012-11-17 18:00:09+00:00,,Dining and Drinking,Bar,18.0,2.0,nyc,Rec
22,1022,40.7465648747259,-73.98202440761015,26270,Arts & Entertainment,2012-11-17 18:00:09+00:00,,Arts and Entertainment,Arts and Entertainment,18.0,2.0,nyc,Rec
23,1022,40.780048,-73.9815882298017,13914,Stadium,2012-11-25 18:00:09+00:00,,Arts and Entertainment,Stadium,26.0,3.0,nyc,Explore
24,1022,40.77138107266706,-73.95646042374283,2621,Bar,2012-11-25 18:00:09+00:00,,Dining and Drinking,Bar,26.0,3.0,nyc,Return
25,1022,40.72665398669788,-73.99226856206892,29663,Italian Restaurant,2012-11-26 18:00:09+00:00,,Dining and Drinking,Restaurant,27.0,3.0,nyc,Return
26,1022,40.72397122795905,-73.99608487193893,4972,Clothing Store,2012-11-27 18:00:09+00:00,,Retail,Boutique,28.0,4.0,nyc,Rec
27,1022,40.722527,-74.001153,10118,Music Store,2012-11-29 18:00:09+00:00,,Retail,Music Store,30.0,4.0,nyc,Rec
28,1022,40.72223927041919,-74.00553636777052,3053,Plaza,2012-12-01 18:00:09+00:00,,Landmarks and Outdoors,Plaza,32.0,4.0,nyc,Rec
29,1022,40.70466881817266,-74.00944422692616,19429,Garden,2012-12-01 18:00:09+00:00,,Landmarks and Outdoors,Garden,32.0,4.0,nyc,Return
30,1022,40.72790384278999,-73.9931064351043,27334,Convention Center,2012-12-01 18:00:09+00:00,,Business and Professional Services,Convention Center,32.0,4.0,nyc,Explore
31,1022,40.72915165633661,-73.99222265111187,22505,Music Venue,2012-12-01 18:00:09+00:00,,Arts and Entertainment,Performing Arts Venue,32.0,4.0,nyc,Explore
32,1022,40.72223927041919,-74.00553636777052,3053,Plaza,2012-12-01 18:00:09+00:00,,Landmarks and Outdoors,Plaza,32.0,4.0,nyc,Return
33,1022,40.71942043681212,-73.99914264678955,13833,History Museum,2012-12-01 18:00:09+00:00,,Arts and Entertainment,Museum,32.0,4.0,nyc,Explore
34,1022,40.729395470403695,-73.98717237876596,17156,Bar,2012-12-01 18:00:09+00:00,,Dining and Drinking,Bar,32.0,4.0,nyc,Rec
35,1022,40.72885418126316,-73.98760854389359,10521,Library,2012-12-01 18:00:09+00:00,,Community and Government,Library,32.0,4.0,nyc,Explore
36,1022,40.75039771321043,-74.0034245986147,24661,Hotel,2012-12-01 18:00:09+00:00,,Travel and Transportation,Lodging,32.0,4.0,nyc,Return
37,1022,40.741778511511214,-73.98538179575334,8971,Deli / Bodega,2012-12-12 18:00:09+00:00,,Dining and Drinking,Restaurant,43.0,6.0,nyc,Rec
38,1022,40.74434194850082,-73.98244910610394,19726,Deli / Bodega,2012-12-12 18:00:09+00:00,,Dining and Drinking,Restaurant,43.0,6.0,nyc,Rec
39,1022,40.72553593075708,-73.99678499873524,3519,Furniture / Home Store,2012-12-12 18:00:09+00:00,,Retail,Furniture and Home Store,43.0,6.0,nyc,Rec
