,uid,lat,lng,venueID,venue_descr,time,city_name,First_Category,Second_Category,step,epoch,city,simulation_state
0,602,40.76295864769284,-73.97392988204956,35690,Other Great Outdoors,2012-06-03 16:10:14+00:00,New York City,Landmarks and Outdoors,Other Great Outdoors,,,,
1,602,40.73528249691621,-73.99040315158283,758,Park,2012-10-28 02:13:20+00:00,New York City,Landmarks and Outdoors,Park,,,,
2,602,40.57840084043545,-73.93618583679199,1774,Community College,2012-06-07 16:11:56+00:00,New York City,Community and Government,Education,,,,
3,602,40.76820821285607,-73.9818177971927,9180,Clothing Store,2012-10-25 00:54:28+00:00,New York City,Retail,Boutique,,,,
4,602,40.76820821285607,-73.9818177971927,9180,Clothing Store,2012-10-23 00:53:45+00:00,New York City,Retail,Boutique,,,,
5,602,40.76820821285607,-73.9818177971927,9180,Clothing Store,2012-10-24 00:57:40+00:00,New York City,Retail,Boutique,,,,
6,602,40.76803326982161,-73.98186922073364,2490,Plaza,2012-10-24 12:08:33+00:00,New York City,Landmarks and Outdoors,Plaza,,,,
7,602,40.73083612189599,-73.99764060974121,896,Park,2012-11-01 18:00:09+00:00,,Landmarks and Outdoors,Park,2.0,0.0,nyc,Rec
8,602,40.74064691662654,-73.99104044018358,6998,Coffee Shop,2012-11-27 18:00:09+00:00,,Dining and Drinking,"Cafe, Coffee, and Tea House",28.0,4.0,nyc,Rec
9,602,40.76442779969638,-73.98433154217956,8923,Miscellaneous Shop,2012-12-02 18:00:09+00:00,,Retail,Miscellaneous Store,33.0,4.0,nyc,Rec
10,602,40.809391811146064,-73.95174264907835,3970,Movie Theater,2012-12-04 18:00:09+00:00,,Arts and Entertainment,Movie Theater,35.0,5.0,nyc,Rec
11,602,40.772864,-73.98199,9303,Clothing Store,2012-12-05 18:00:09+00:00,,Retail,Fashion Retail,36.0,5.0,nyc,Rec
12,602,40.7702393297702,-73.9818263053894,5264,Electronics Store,2012-12-05 18:00:09+00:00,,Retail,Computers and Electronics Retail,36.0,5.0,nyc,Rec
13,602,40.76346247057747,-73.97400498390198,1857,Department Store,2012-12-09 18:00:09+00:00,,Retail,Department Store,40.0,5.0,nyc,Rec
14,602,40.79079319957236,-73.95502567291258,36169,Stadium,2012-12-10 18:00:09+00:00,,Arts and Entertainment,Stadium,41.0,5.0,nyc,Rec
15,602,40.7796238877232,-73.95570849054509,8356,Drugstore / Pharmacy,2012-12-12 18:00:09+00:00,,Retail,Pharmacy,43.0,6.0,nyc,Rec
16,602,40.78626052122175,-73.95373821258545,25073,Playground,2012-12-12 18:00:09+00:00,,Landmarks and Outdoors,Park,43.0,6.0,nyc,Rec
17,602,40.77959903465128,-73.95596981048584,12202,Video Game Store,2012-12-14 18:00:09+00:00,,Retail,Computers and Electronics Retail,45.0,6.0,nyc,Rec
18,602,40.7783736214385,-73.95255722721059,28001,Food & Drink Shop,2012-12-17 18:00:09+00:00,,Retail,Food and Beverage Retail,48.0,6.0,nyc,Rec
19,602,40.7795359365368,-73.77673493663156,12015,Mall,2012-12-18 18:00:09+00:00,,Retail,Shopping Mall,49.0,7.0,nyc,Rec
20,602,40.77924157014339,-73.77649784088135,7658,American Restaurant,2012-12-20 18:00:09+00:00,,Dining and Drinking,Restaurant,51.0,7.0,nyc,Rec
21,602,40.756489872673846,-73.8370943069458,13966,Electronics Store,2012-12-21 18:00:09+00:00,,Retail,Computers and Electronics Retail,52.0,7.0,nyc,Rec
22,602,40.79535805750898,-73.93105745315552,19141,Department Store,2012-12-27 18:00:09+00:00,,Retail,Department Store,58.0,8.0,nyc,Rec
23,602,40.80205044903638,-73.93399715423584,6154,Plaza,2013-01-01 18:00:09+00:00,,Landmarks and Outdoors,Plaza,63.0,9.0,nyc,Rec
24,602,40.8039995624073,-73.93176555633545,32141,Playground,2013-01-01 18:00:09+00:00,,Landmarks and Outdoors,Park,63.0,9.0,nyc,Rec
25,602,40.75234609858383,-73.99408777489505,1938,Movie Theater,2013-01-05 18:00:09+00:00,,Arts and Entertainment,Movie Theater,67.0,9.0,nyc,Rec
26,602,40.752212,-73.98009935,22158,Electronics Store,2013-01-07 18:00:09+00:00,,Retail,Computers and Electronics Retail,69.0,9.0,nyc,Rec
27,602,40.74910525967178,-73.98820539983072,4662,Video Game Store,2013-01-07 18:00:09+00:00,,Retail,Computers and Electronics Retail,69.0,9.0,nyc,Rec
28,602,40.73528249691621,-73.99040315158283,758,Park,2013-01-11 18:00:09+00:00,,Landmarks and Outdoors,Park,73.0,10.0,nyc,Rec
29,602,40.7317183252113,-73.98555396792241,6747,Asian Restaurant,2013-01-18 18:00:09+00:00,,Dining and Drinking,Restaurant,80.0,11.0,nyc,Rec
30,602,40.74907763805906,-73.98815631866455,35553,Video Game Store,2013-01-18 18:00:09+00:00,,Retail,Computers and Electronics Retail,80.0,11.0,nyc,Rec
31,602,40.75030818409307,-73.9890719854358,13149,Electronics Store,2013-01-21 18:00:09+00:00,,Retail,Computers and Electronics Retail,83.0,11.0,nyc,Rec
32,602,40.751681351467546,-73.97256601428734,20282,Steakhouse,2013-01-25 18:00:09+00:00,,Dining and Drinking,Restaurant,87.0,12.0,nyc,Rec
33,602,40.74907763805906,-73.98815631866455,35553,Video Game Store,2013-01-30 18:00:09+00:00,,Retail,Computers and Electronics Retail,92.0,13.0,nyc,Rec
34,602,40.7388714434338,-73.98297136918099,6919,Coffee Shop,2013-02-02 18:00:09+00:00,,Dining and Drinking,"Cafe, Coffee, and Tea House",95.0,13.0,nyc,Rec
35,602,40.73846509,-73.982183,14731,Burger Joint,2013-02-02 18:00:09+00:00,,Dining and Drinking,Restaurant,95.0,13.0,nyc,Rec
36,602,40.73798843905914,-73.99010499627633,6402,Clothing Store,2013-02-02 18:00:09+00:00,,Retail,Fashion Retail,95.0,13.0,nyc,Rec
37,602,40.76346247057747,-73.97400498390198,1857,Department Store,2013-02-03 18:00:09+00:00,,Retail,Department Store,96.0,13.0,nyc,Rec
