,uid,lat,lng,venueID,venue_descr,time,city_name,First_Category,Second_Category,step,epoch,city,simulation_state
0,1018,40.78007502367464,-73.95526897957147,2609,Coffee Shop,2012-04-20 12:11:22+00:00,New York City,Dining and Drinking,"Cafe, Coffee, and Tea House",,,,
1,1018,40.78251988626731,-73.95112220866015,3013,Coffee Shop,2012-04-27 11:32:14+00:00,New York City,Dining and Drinking,"Cafe, Coffee, and Tea House",,,,
2,1018,40.771485,-73.95922147,489,Vegetarian / Vegan Restaurant,2012-06-08 01:22:33+00:00,New York City,Dining and Drinking,Restaurant,,,,
3,1018,40.78007502367464,-73.95526897957147,2609,Coffee Shop,2012-05-18 12:36:18+00:00,New York City,Dining and Drinking,"Cafe, Coffee, and Tea House",,,,
4,1018,40.770387,-73.960023,738,Diner,2012-05-18 14:41:57+00:00,New York City,Dining and Drinking,Restaurant,,,,
5,1018,40.77062934379985,-73.95970344543457,34658,Clothing Store,2012-05-18 15:37:43+00:00,New York City,Retail,Fashion Retail,,,,
6,1018,40.77134383605755,-73.95945664755212,16566,Clothing Store,2012-05-18 15:38:35+00:00,New York City,Retail,Fashion Retail,,,,
7,1018,40.75029681237194,-73.97506713867188,4746,Mexican Restaurant,2012-04-09 19:01:07+00:00,New York City,Dining and Drinking,Restaurant,,,,
8,1018,40.7812,-73.952111,28162,Thai Restaurant,2012-04-09 22:31:04+00:00,New York City,Dining and Drinking,Restaurant,,,,
9,1018,40.78007502367464,-73.95526897957147,2609,Coffee Shop,2012-04-23 11:45:14+00:00,New York City,Dining and Drinking,"Cafe, Coffee, and Tea House",,,,
10,1018,40.77861078269993,-73.95302217093521,6412,Ice Cream Shop,2012-06-18 01:28:03+00:00,New York City,Dining and Drinking,Dessert Shop,,,,
11,1018,40.78007502367464,-73.95526897957147,2609,Coffee Shop,2012-05-14 12:55:55+00:00,New York City,Dining and Drinking,"Cafe, Coffee, and Tea House",,,,
12,1018,40.781538066533166,-73.9541472153185,10300,Food & Drink Shop,2012-05-14 22:55:03+00:00,New York City,Retail,Food and Beverage Retail,,,,
13,1018,40.75200361885657,-73.97566795349121,8763,Coffee Shop,2012-05-21 16:04:37+00:00,New York City,Dining and Drinking,"Cafe, Coffee, and Tea House",,,,
14,1018,40.75323899431278,-73.97914409637451,26409,American Restaurant,2012-04-07 13:00:58+00:00,New York City,Dining and Drinking,Restaurant,,,,
15,1018,40.75976077083787,-73.98800453505906,33808,Art Gallery,2012-04-07 19:23:25+00:00,New York City,Arts and Entertainment,Art Gallery,,,,
16,1018,40.75061379403183,-73.98856401443481,1028,Department Store,2012-04-07 20:12:51+00:00,New York City,Retail,Department Store,,,,
17,1018,40.77861078269993,-73.95302217093521,6412,Ice Cream Shop,2012-04-07 21:15:22+00:00,New York City,Dining and Drinking,Dessert Shop,,,,
18,1018,40.74276195733468,-73.97692322731018,1808,Movie Theater,2012-04-14 14:11:41+00:00,New York City,Arts and Entertainment,Movie Theater,,,,
19,1018,40.70131719647856,-74.01504278182983,14314,American Restaurant,2012-04-14 21:25:46+00:00,New York City,Dining and Drinking,Restaurant,,,,
20,1018,40.7043034492768,-74.01017299652374,722,Gastropub,2012-04-14 21:35:22+00:00,New York City,Dining and Drinking,Restaurant,,,,
21,1018,40.70325299803113,-74.0142273902893,4753,Coffee Shop,2012-04-14 22:07:29+00:00,New York City,Dining and Drinking,"Cafe, Coffee, and Tea House",,,,
22,1018,40.75826153445624,-73.96620512008666,34707,Ice Cream Shop,2012-04-21 17:11:51+00:00,New York City,Dining and Drinking,Dessert Shop,,,,
23,1018,40.744412057925786,-73.9953875541687,34230,Event Space,2012-04-21 18:44:55+00:00,New York City,Business and Professional Services,Event Space,,,,
24,1018,40.78055553241997,-73.94991104471245,22233,Pizza Place,2012-07-07 23:23:47+00:00,New York City,Dining and Drinking,Restaurant,,,,
25,1018,40.779720692671575,-73.9653858192127,15467,Sculpture Garden,2012-06-02 21:29:44+00:00,New York City,Landmarks and Outdoors,Sculpture Garden,,,,
26,1018,40.774033744058094,-73.96684885025024,3286,Harbor / Marina,2012-06-02 21:44:22+00:00,New York City,Landmarks and Outdoors,Harbor or Marina,,,,
27,1018,40.76853552076642,-73.95557647143723,33308,Burger Joint,2012-06-02 22:48:41+00:00,New York City,Dining and Drinking,Restaurant,,,,
28,1018,40.77361447158453,-73.9641058682518,1176,Art Museum,2012-05-12 16:50:49+00:00,New York City,Arts and Entertainment,Museum,,,,
29,1018,40.760667,-73.967335,14089,Furniture / Home Store,2012-05-12 18:21:04+00:00,New York City,Retail,Furniture and Home Store,,,,
30,1018,40.761471535292976,-73.96677374839783,3687,Hardware Store,2012-05-12 18:45:28+00:00,New York City,Retail,Hardware Store,,,,
31,1018,40.78007502367464,-73.95526897957147,2609,Coffee Shop,2012-05-19 13:14:13+00:00,New York City,Dining and Drinking,"Cafe, Coffee, and Tea House",,,,
32,1018,40.7114673282201,-74.01328325271606,11234,Historic Site,2012-05-19 14:09:10+00:00,New York City,Landmarks and Outdoors,Historic and Protected Site,,,,
33,1018,40.71056828033833,-74.01106817427426,3192,Department Store,2012-05-19 14:52:11+00:00,New York City,Retail,Department Store,,,,
34,1018,40.7043034492768,-74.01017299652374,722,Gastropub,2012-05-19 17:20:54+00:00,New York City,Dining and Drinking,Restaurant,,,,
35,1018,40.70204681858677,-74.01604322035226,29457,Park,2012-05-19 18:15:26+00:00,New York City,Landmarks and Outdoors,Park,,,,
36,1018,40.770387,-73.960023,738,Diner,2012-04-08 12:09:11+00:00,New York City,Dining and Drinking,Restaurant,,,,
37,1018,40.73939794092962,-73.99320973426613,26195,General Entertainment,2012-04-08 13:36:51+00:00,New York City,Arts and Entertainment,General Entertainment,,,,
38,1018,40.79424530078437,-73.95197868347168,5733,Garden,2012-04-08 17:27:50+00:00,New York City,Landmarks and Outdoors,Garden,,,,
39,1018,40.796852533544765,-73.95893096923828,10103,Scenic Lookout,2012-04-08 17:46:32+00:00,New York City,Landmarks and Outdoors,Scenic Lookout,,,,
40,1018,40.77943655102251,-73.96790027618408,4372,Other Great Outdoors,2012-04-08 18:32:23+00:00,New York City,Landmarks and Outdoors,Lake,,,,
41,1018,40.77361447158453,-73.9641058682518,1176,Art Museum,2012-04-08 18:49:35+00:00,New York City,Arts and Entertainment,Museum,,,,
42,1018,40.701288,-74.015248,34771,Event Space,2012-04-15 04:17:16+00:00,New York City,Business and Professional Services,Event Space,,,,
43,1018,40.74276195733468,-73.97692322731018,1808,Movie Theater,2012-04-15 14:05:18+00:00,New York City,Arts and Entertainment,Movie Theater,,,,
44,1018,40.722002,-73.9856342,2263,Diner,2012-04-15 16:46:21+00:00,New York City,Dining and Drinking,Restaurant,,,,
45,1018,40.81780414338999,-73.85728597640991,34966,Other Great Outdoors,2012-04-22 13:56:53+00:00,New York City,Landmarks and Outdoors,Other Great Outdoors,,,,
46,1018,40.78026818764822,-73.949934005237,34063,Mexican Restaurant,2012-04-22 23:05:33+00:00,New York City,Dining and Drinking,Restaurant,,,,
47,1018,40.782791,-73.950917,922,American Restaurant,2012-06-03 18:07:10+00:00,New York City,Dining and Drinking,Restaurant,,,,
48,1018,40.7812,-73.952111,28162,Thai Restaurant,2012-06-17 17:01:05+00:00,New York City,Dining and Drinking,Restaurant,,,,
49,1018,40.77537345525872,-73.95346989346444,34260,Ice Cream Shop,2012-05-13 00:10:24+00:00,New York City,Dining and Drinking,Dessert Shop,,,,
50,1018,40.778646468712765,-73.94788563251495,9947,Video Store,2012-05-13 00:55:07+00:00,New York City,Retail,Video Store,,,,
51,1018,40.73492041854701,-73.98829722365633,17,Music Venue,2012-04-19 00:59:02+00:00,New York City,Arts and Entertainment,Performing Arts Venue,,,,
52,1018,40.7812,-73.952111,28162,Thai Restaurant,2012-04-19 23:35:18+00:00,New York City,Dining and Drinking,Restaurant,,,,
53,1018,40.77861078269993,-73.95302217093521,6412,Ice Cream Shop,2012-04-26 00:49:10+00:00,New York City,Dining and Drinking,Dessert Shop,,,,
54,1018,40.75169333099049,-73.97658359254557,3009,Hotel,2012-06-07 23:48:26+00:00,New York City,Travel and Transportation,Lodging,,,,
55,1018,40.74095889897262,-73.9815537946694,4521,Mexican Restaurant,2012-05-17 00:11:33+00:00,New York City,Dining and Drinking,Restaurant,,,,
56,1018,40.73492041854701,-73.98829722365633,17,Music Venue,2012-05-17 00:42:31+00:00,New York City,Arts and Entertainment,Performing Arts Venue,,,,
57,1018,40.77861078269993,-73.95302217093521,6412,Ice Cream Shop,2012-05-17 21:02:29+00:00,New York City,Dining and Drinking,Dessert Shop,,,,
58,1018,40.78007502367464,-73.95526897957147,2609,Coffee Shop,2012-04-24 11:27:20+00:00,New York City,Dining and Drinking,"Cafe, Coffee, and Tea House",,,,
59,1018,40.7526195459056,-73.99336294005377,2245,Hotel,2012-04-24 12:37:20+00:00,New York City,Travel and Transportation,Lodging,,,,
60,1018,40.7576491292538,-73.98919250365374,3526,Hotel,2012-05-15 22:43:08+00:00,New York City,Travel and Transportation,Lodging,,,,
61,1018,40.759303622089554,-73.9869887299947,33443,General Entertainment,2012-05-15 22:54:43+00:00,New York City,Arts and Entertainment,General Entertainment,,,,
62,1018,40.759561806637954,-73.98699760437012,31806,Theater,2012-05-15 22:55:41+00:00,New York City,Arts and Entertainment,Performing Arts Venue,,,,
63,1018,40.78007502367464,-73.95526897957147,2609,Coffee Shop,2012-05-29 10:14:29+00:00,New York City,Dining and Drinking,"Cafe, Coffee, and Tea House",,,,
64,1018,40.753692984580994,-73.97763,3245,Tapas Restaurant,2012-10-16 17:51:35+00:00,New York City,Dining and Drinking,Restaurant,,,,
65,1018,40.75357244672408,-73.97311700141091,3670,Salon / Barbershop,2012-04-25 17:09:21+00:00,New York City,Business and Professional Services,Health and Beauty Service,,,,
66,1018,40.7812,-73.952111,28162,Thai Restaurant,2012-04-25 23:45:13+00:00,New York City,Dining and Drinking,Restaurant,,,,
67,1018,40.761471535292976,-73.96677374839783,3687,Hardware Store,2012-10-24 23:09:18+00:00,New York City,Retail,Hardware Store,,,,
68,1018,40.76448813408549,-73.98555970699206,7952,Comedy Club,2012-11-20 18:00:09+00:00,,Arts and Entertainment,Comedy Club,21.0,3.0,nyc,Rec
69,1018,40.75281067913847,-73.97726655006409,33067,Hot Dog Joint,2012-11-25 18:00:09+00:00,,Dining and Drinking,Restaurant,26.0,3.0,nyc,Rec
70,1018,40.75285675549502,-73.97367372638176,31793,Convention Center,2012-11-27 18:00:09+00:00,,Business and Professional Services,Convention Center,28.0,4.0,nyc,Rec
71,1018,40.759458456654,-73.99512649750574,25933,Hotel,2012-12-12 18:00:09+00:00,,Travel and Transportation,Lodging,43.0,6.0,nyc,Rec
72,1018,40.761820249581454,-74.00099144439545,3946,Bowling Alley,2012-12-14 18:00:09+00:00,,Arts and Entertainment,Bowling Alley,45.0,6.0,nyc,Rec
73,1018,40.75234609858383,-73.99408777489505,1938,Movie Theater,2012-12-15 18:00:09+00:00,,Arts and Entertainment,Movie Theater,46.0,6.0,nyc,Rec
74,1018,40.74204093790964,-73.99044933198735,5994,Sandwich Place,2012-12-16 18:00:09+00:00,,Dining and Drinking,Restaurant,47.0,6.0,nyc,Rec
75,1018,40.75274100802376,-73.97330797224723,24777,German Restaurant,2012-12-16 18:00:09+00:00,,Dining and Drinking,Restaurant,47.0,6.0,nyc,Rec
76,1018,40.78300784308452,-73.95927297233499,15510,Art Museum,2012-12-16 18:00:09+00:00,,Arts and Entertainment,Museum,47.0,6.0,nyc,Rec
77,1018,40.788608,-73.97422244999998,1343,Vegetarian / Vegan Restaurant,2012-12-17 18:00:09+00:00,,Dining and Drinking,Restaurant,48.0,6.0,nyc,Rec
