,uid,lat,lng,venueID,venue_descr,time,city_name,First_Category,Second_Category,step,epoch,city,simulation_state
0,1022,40.7114673282201,-74.01328325271606,11234,Historic Site,2012-09-14 21:31:00+00:00,New York City,Landmarks and Outdoors,Historic and Protected Site,,,,
1,1022,40.77229,-73.98509,11623,Event Space,2012-09-15 00:03:22+00:00,New York City,Business and Professional Services,Event Space,,,,
2,1022,40.72665881338428,-73.99228003980646,29663,Italian Restaurant,2012-09-15 00:26:32+00:00,New York City,Dining and Drinking,Restaurant,,,,
3,1022,40.74946079318199,-73.9848365828663,3068,Bar,2012-09-15 05:40:21+00:00,New York City,Dining and Drinking,Bar,,,,
4,1022,40.75039771321043,-74.0034245986147,24661,Hotel,2012-09-15 05:53:53+00:00,New York City,Travel and Transportation,Lodging,,,,
5,1022,40.77253079341116,-73.98344197864982,129,Performing Arts Venue,2012-09-15 06:02:05+00:00,New York City,Arts and Entertainment,Performing Arts Venue,,,,
6,1022,40.80684894365967,-74.06399095229042,37202,Other Great Outdoors,2012-09-15 06:20:52+00:00,New York City,Landmarks and Outdoors,Other Great Outdoors,,,,
7,1022,40.70627844701678,-74.01308804712747,37210,Building,2012-09-15 10:27:16+00:00,New York City,Landmarks and Outdoors,Structure,,,,
8,1022,40.64674618651803,-74.0765195097278,17293,Government Building,2012-09-15 11:24:33+00:00,New York City,Landmarks and Outdoors,Monument,,,,
9,1022,40.70466881817266,-74.00944422692616,19429,Garden,2012-09-15 12:16:53+00:00,New York City,Landmarks and Outdoors,Garden,,,,
10,1022,40.720480045234375,-73.99355980323412,736,Music Venue,2012-09-15 16:33:29+00:00,New York City,Arts and Entertainment,Performing Arts Venue,,,,
11,1022,40.71403714818288,-73.98725509643553,34899,Pizza Place,2012-09-15 22:52:57+00:00,New York City,Dining and Drinking,Restaurant,,,,
12,1022,40.73649582303289,-73.99055837150034,36469,Other Great Outdoors,2012-09-15 23:31:45+00:00,New York City,Landmarks and Outdoors,Other Great Outdoors,,,,
13,1022,40.79318963565758,-73.85139118382254,35665,Mosque,2012-09-15 23:38:49+00:00,New York City,Community and Government,Spiritual Center,,,,
14,1022,40.79318963565758,-73.85139118382254,35665,Mosque,2012-11-16 18:00:09+00:00,,Community and Government,Spiritual Center,17.0,2.0,nyc,Return
15,1022,40.737116,-73.81773096975977,15062,College Academic Building,2012-11-16 18:00:09+00:00,,Community and Government,Education,17.0,2.0,nyc,Rec
16,1022,40.73523006577503,-73.8201523688399,15058,College Academic Building,2012-11-16 18:00:09+00:00,,Community and Government,Education,17.0,2.0,nyc,Rec
17,1022,40.756392348635856,-73.8455057144165,14462,Museum,2012-11-17 18:00:09+00:00,,Arts and Entertainment,Museum,18.0,2.0,nyc,Rec
18,1022,40.75174353688835,-73.83692264556885,12059,Park,2012-11-17 18:00:09+00:00,,Landmarks and Outdoors,Park,18.0,2.0,nyc,Rec
19,1022,40.76707490677534,-73.7926829532109,28615,Bridge,2012-11-17 18:00:09+00:00,,Landmarks and Outdoors,Bridge,18.0,2.0,nyc,Rec
20,1022,40.75693760857892,-73.988389047438,8229,Museum,2012-11-17 18:00:09+00:00,,Arts and Entertainment,Museum,18.0,2.0,nyc,Rec
21,1022,40.756151,-73.98692,6071,Bar,2012-11-17 18:00:09+00:00,,Dining and Drinking,Bar,18.0,2.0,nyc,Rec
22,1022,40.7465648747259,-73.98202440761015,26270,Arts & Entertainment,2012-11-17 18:00:09+00:00,,Arts and Entertainment,Arts and Entertainment,18.0,2.0,nyc,Rec
23,1022,40.75645736467708,-73.8460636138916,2664,Stadium,2012-11-25 18:00:09+00:00,,Arts and Entertainment,Stadium,26.0,3.0,nyc,Rec
24,1022,40.75824528089301,-73.8455057144165,14469,Bar,2012-11-25 18:00:09+00:00,,Dining and Drinking,Bar,26.0,3.0,nyc,Rec
25,1022,40.78195703357537,-73.82981210947037,15214,Coffee Shop,2012-11-26 18:00:09+00:00,,Dining and Drinking,"Cafe, Coffee, and Tea House",27.0,3.0,nyc,Rec
26,1022,40.72347054072888,-73.99582088904029,5075,Clothing Store,2012-11-27 18:00:09+00:00,,Retail,Boutique,28.0,4.0,nyc,Rec
27,1022,40.722527,-74.001153,10118,Music Store,2012-11-29 18:00:09+00:00,,Retail,Music Store,30.0,4.0,nyc,Rec
28,1022,40.71593276381032,-74.00432554645808,4279,Plaza,2012-12-01 18:00:09+00:00,,Landmarks and Outdoors,Plaza,32.0,4.0,nyc,Rec
29,1022,40.75174353688835,-73.83692264556885,12059,Park,2012-12-01 18:00:09+00:00,,Landmarks and Outdoors,Park,32.0,4.0,nyc,Return
30,1022,40.75671096305903,-74.00100198012031,1295,Convention Center,2012-12-01 18:00:09+00:00,,Business and Professional Services,Convention Center,32.0,4.0,nyc,Rec
31,1022,40.75908711345461,-73.98767741198104,31688,Theater,2012-12-01 18:00:09+00:00,,Arts and Entertainment,Performing Arts Venue,32.0,4.0,nyc,Explore
32,1022,40.787855984049095,-73.79333210698177,23233,Other Great Outdoors,2012-12-01 18:00:09+00:00,,Landmarks and Outdoors,Park,32.0,4.0,nyc,Rec
33,1022,40.78444086438884,-73.82522821426392,34493,Science Museum,2012-12-01 18:00:09+00:00,,Arts and Entertainment,Museum,32.0,4.0,nyc,Rec
34,1022,40.7801294210853,-73.79279210310794,35129,Bar,2012-12-01 18:00:09+00:00,,Dining and Drinking,Bar,32.0,4.0,nyc,Rec
35,1022,40.70744161076342,-73.79459594011172,11400,Library,2012-12-01 18:00:09+00:00,,Community and Government,Library,32.0,4.0,nyc,Rec
36,1022,40.7059036009906,-73.81723442649465,14957,Hotel,2012-12-01 18:00:09+00:00,,Travel and Transportation,Lodging,32.0,4.0,nyc,Rec
37,1022,40.72665398669788,-73.99226856206892,29663,Italian Restaurant,2012-12-12 18:00:09+00:00,,Dining and Drinking,Restaurant,43.0,6.0,nyc,Return
38,1022,40.72639997828572,-73.9917348465147,32038,Gastropub,2012-12-12 18:00:09+00:00,,Dining and Drinking,Restaurant,43.0,6.0,nyc,Rec
39,1022,40.720583,-74.001004,3601,Furniture / Home Store,2012-12-12 18:00:09+00:00,,Retail,Furniture and Home Store,43.0,6.0,nyc,Rec
